[
    {
        "geoid": 100124,
        "type": "city",
        "place": "Abbeville",
        "region": "AL",
        "country": "US",
        "latitude": 31.5718352,
        "longitude": -85.2504893
    },
    {
        "geoid": 100460,
        "type": "city",
        "place": "Adamsville",
        "region": "AL",
        "country": "US",
        "latitude": 33.6009389,
        "longitude": -86.9561059
    },
    {
        "geoid": 100820,
        "type": "city",
        "place": "Alabaster",
        "region": "AL",
        "country": "US",
        "latitude": 33.2442813,
        "longitude": -86.8163773
    },
    {
        "geoid": 100988,
        "type": "city",
        "place": "Albertville",
        "region": "AL",
        "country": "US",
        "latitude": 34.2675937,
        "longitude": -86.20886689999999
    },
    {
        "geoid": 101132,
        "type": "city",
        "place": "Alexander City",
        "region": "AL",
        "country": "US",
        "latitude": 32.944012,
        "longitude": -85.9538532
    },
    {
        "geoid": 101228,
        "type": "city",
        "place": "Aliceville",
        "region": "AL",
        "country": "US",
        "latitude": 33.1295681,
        "longitude": -88.15141659999999
    },
    {
        "geoid": 101708,
        "type": "city",
        "place": "Andalusia",
        "region": "AL",
        "country": "US",
        "latitude": 31.3085039,
        "longitude": -86.48329129999999
    },
    {
        "geoid": 101852,
        "type": "city",
        "place": "Anniston",
        "region": "AL",
        "country": "US",
        "latitude": 33.6598257,
        "longitude": -85.8316318
    },
    {
        "geoid": 102116,
        "type": "city",
        "place": "Arab",
        "region": "AL",
        "country": "US",
        "latitude": 34.31814970000001,
        "longitude": -86.4958219
    },
    {
        "geoid": 102908,
        "type": "city",
        "place": "Ashville",
        "region": "AL",
        "country": "US",
        "latitude": 33.8370433,
        "longitude": -86.2544223
    },
    {
        "geoid": 102956,
        "type": "city",
        "place": "Athens",
        "region": "AL",
        "country": "US",
        "latitude": 34.8028661,
        "longitude": -86.9716741
    },
    {
        "geoid": 103004,
        "type": "city",
        "place": "Atmore",
        "region": "AL",
        "country": "US",
        "latitude": 31.0237921,
        "longitude": -87.4938708
    },
    {
        "geoid": 103028,
        "type": "city",
        "place": "Attalla",
        "region": "AL",
        "country": "US",
        "latitude": 34.0217639,
        "longitude": -86.0885852
    },
    {
        "geoid": 103076,
        "type": "city",
        "place": "Auburn",
        "region": "AL",
        "country": "US",
        "latitude": 32.6098566,
        "longitude": -85.48078249999999
    },
    {
        "geoid": 104660,
        "type": "city",
        "place": "Bay Minette",
        "region": "AL",
        "country": "US",
        "latitude": 30.8829628,
        "longitude": -87.7730474
    },
    {
        "geoid": 104684,
        "type": "city",
        "place": "Bayou La Batre",
        "region": "AL",
        "country": "US",
        "latitude": 30.4069515,
        "longitude": -88.26071879999999
    },
    {
        "geoid": 105980,
        "type": "city",
        "place": "Bessemer",
        "region": "AL",
        "country": "US",
        "latitude": 33.4017766,
        "longitude": -86.954437
    },
    {
        "geoid": 107000,
        "type": "city",
        "place": "Birmingham",
        "region": "AL",
        "country": "US",
        "latitude": 33.5185892,
        "longitude": -86.8103567
    },
    {
        "geoid": 107912,
        "type": "city",
        "place": "Boaz",
        "region": "AL",
        "country": "US",
        "latitude": 34.2031662,
        "longitude": -86.15209689999999
    },
    {
        "geoid": 109136,
        "type": "city",
        "place": "Brent",
        "region": "AL",
        "country": "US",
        "latitude": 32.9373463,
        "longitude": -87.1647184
    },
    {
        "geoid": 109208,
        "type": "city",
        "place": "Brewton",
        "region": "AL",
        "country": "US",
        "latitude": 31.1051779,
        "longitude": -87.0721918
    },
    {
        "geoid": 109328,
        "type": "city",
        "place": "Bridgeport",
        "region": "AL",
        "country": "US",
        "latitude": 34.9475807,
        "longitude": -85.7144155
    },
    {
        "geoid": 109400,
        "type": "city",
        "place": "Brighton",
        "region": "AL",
        "country": "US",
        "latitude": 33.4342755,
        "longitude": -86.9472148
    },
    {
        "geoid": 110240,
        "type": "city",
        "place": "Brundidge",
        "region": "AL",
        "country": "US",
        "latitude": 31.7201615,
        "longitude": -85.81605669999999
    },
    {
        "geoid": 111416,
        "type": "city",
        "place": "Calera",
        "region": "AL",
        "country": "US",
        "latitude": 33.1028965,
        "longitude": -86.7535975
    },
    {
        "geoid": 111512,
        "type": "city",
        "place": "Camden",
        "region": "AL",
        "country": "US",
        "latitude": 31.9909813,
        "longitude": -87.2905456
    },
    {
        "geoid": 112016,
        "type": "city",
        "place": "Carbon Hill",
        "region": "AL",
        "country": "US",
        "latitude": 33.89177420000001,
        "longitude": -87.52612359999999
    },
    {
        "geoid": 113264,
        "type": "city",
        "place": "Center Point",
        "region": "AL",
        "country": "US",
        "latitude": 33.6456583,
        "longitude": -86.68360009999999
    },
    {
        "geoid": 113648,
        "type": "city",
        "place": "Centre",
        "region": "AL",
        "country": "US",
        "latitude": 34.1520406,
        "longitude": -85.67885310000001
    },
    {
        "geoid": 113672,
        "type": "city",
        "place": "Centreville",
        "region": "AL",
        "country": "US",
        "latitude": 32.9445682,
        "longitude": -87.1386067
    },
    {
        "geoid": 114104,
        "type": "city",
        "place": "Chelsea",
        "region": "AL",
        "country": "US",
        "latitude": 33.3401108,
        "longitude": -86.6302625
    },
    {
        "geoid": 114392,
        "type": "city",
        "place": "Chickasaw",
        "region": "AL",
        "country": "US",
        "latitude": 30.7637991,
        "longitude": -88.0747222
    },
    {
        "geoid": 114464,
        "type": "city",
        "place": "Childersburg",
        "region": "AL",
        "country": "US",
        "latitude": 33.2781686,
        "longitude": -86.3549774
    },
    {
        "geoid": 115064,
        "type": "city",
        "place": "Citronelle",
        "region": "AL",
        "country": "US",
        "latitude": 31.0907338,
        "longitude": -88.2280622
    },
    {
        "geoid": 115136,
        "type": "city",
        "place": "Clanton",
        "region": "AL",
        "country": "US",
        "latitude": 32.8387371,
        "longitude": -86.6294262
    },
    {
        "geoid": 115256,
        "type": "city",
        "place": "Clay",
        "region": "AL",
        "country": "US",
        "latitude": 33.7026013,
        "longitude": -86.5997096
    },
    {
        "geoid": 115640,
        "type": "city",
        "place": "Clio",
        "region": "AL",
        "country": "US",
        "latitude": 31.7087753,
        "longitude": -85.6104972
    },
    {
        "geoid": 116768,
        "type": "city",
        "place": "Columbiana",
        "region": "AL",
        "country": "US",
        "latitude": 33.1781718,
        "longitude": -86.6072054
    },
    {
        "geoid": 117368,
        "type": "city",
        "place": "Cordova",
        "region": "AL",
        "country": "US",
        "latitude": 33.7598291,
        "longitude": -87.18333489999999
    },
    {
        "geoid": 118304,
        "type": "city",
        "place": "Creola",
        "region": "AL",
        "country": "US",
        "latitude": 30.8918509,
        "longitude": -88.03972130000001
    },
    {
        "geoid": 118976,
        "type": "city",
        "place": "Cullman",
        "region": "AL",
        "country": "US",
        "latitude": 34.1748208,
        "longitude": -86.8436124
    },
    {
        "geoid": 119336,
        "type": "city",
        "place": "Dadeville",
        "region": "AL",
        "country": "US",
        "latitude": 32.831238,
        "longitude": -85.76356919999999
    },
    {
        "geoid": 119360,
        "type": "city",
        "place": "Daleville",
        "region": "AL",
        "country": "US",
        "latitude": 31.3101719,
        "longitude": -85.7129908
    },
    {
        "geoid": 119648,
        "type": "city",
        "place": "Daphne",
        "region": "AL",
        "country": "US",
        "latitude": 30.6035255,
        "longitude": -87.9036047
    },
    {
        "geoid": 120104,
        "type": "city",
        "place": "Decatur",
        "region": "AL",
        "country": "US",
        "latitude": 34.6059253,
        "longitude": -86.9833417
    },
    {
        "geoid": 120296,
        "type": "city",
        "place": "Demopolis",
        "region": "AL",
        "country": "US",
        "latitude": 32.5176361,
        "longitude": -87.83640199999999
    },
    {
        "geoid": 121136,
        "type": "city",
        "place": "Dora",
        "region": "AL",
        "country": "US",
        "latitude": 33.728717,
        "longitude": -87.0902772
    },
    {
        "geoid": 121184,
        "type": "city",
        "place": "Dothan",
        "region": "AL",
        "country": "US",
        "latitude": 31.2232313,
        "longitude": -85.3904888
    },
    {
        "geoid": 122216,
        "type": "city",
        "place": "East Brewton",
        "region": "AL",
        "country": "US",
        "latitude": 31.0932339,
        "longitude": -87.0627468
    },
    {
        "geoid": 123296,
        "type": "city",
        "place": "Elba",
        "region": "AL",
        "country": "US",
        "latitude": 31.4146108,
        "longitude": -86.0677243
    },
    {
        "geoid": 124184,
        "type": "city",
        "place": "Enterprise",
        "region": "AL",
        "country": "US",
        "latitude": 31.3151708,
        "longitude": -85.85521609999999
    },
    {
        "geoid": 124568,
        "type": "city",
        "place": "Eufaula",
        "region": "AL",
        "country": "US",
        "latitude": 31.8912717,
        "longitude": -85.1454876
    },
    {
        "geoid": 124808,
        "type": "city",
        "place": "Evergreen",
        "region": "AL",
        "country": "US",
        "latitude": 31.4341907,
        "longitude": -86.9545924
    },
    {
        "geoid": 125120,
        "type": "city",
        "place": "Fairfield",
        "region": "AL",
        "country": "US",
        "latitude": 33.4859402,
        "longitude": -86.91193659999999
    },
    {
        "geoid": 125240,
        "type": "city",
        "place": "Fairhope",
        "region": "AL",
        "country": "US",
        "latitude": 30.5229719,
        "longitude": -87.9033261
    },
    {
        "geoid": 125840,
        "type": "city",
        "place": "Fayette",
        "region": "AL",
        "country": "US",
        "latitude": 33.6845539,
        "longitude": -87.8308522
    },
    {
        "geoid": 126896,
        "type": "city",
        "place": "Florence",
        "region": "AL",
        "country": "US",
        "latitude": 34.79981,
        "longitude": -87.677251
    },
    {
        "geoid": 126992,
        "type": "city",
        "place": "Foley",
        "region": "AL",
        "country": "US",
        "latitude": 30.4065868,
        "longitude": -87.6835974
    },
    {
        "geoid": 127616,
        "type": "city",
        "place": "Fort Payne",
        "region": "AL",
        "country": "US",
        "latitude": 34.4442547,
        "longitude": -85.7196893
    },
    {
        "geoid": 128552,
        "type": "city",
        "place": "Fultondale",
        "region": "AL",
        "country": "US",
        "latitude": 33.6102837,
        "longitude": -86.7967857
    },
    {
        "geoid": 128696,
        "type": "city",
        "place": "Gadsden",
        "region": "AL",
        "country": "US",
        "latitude": 34.014264,
        "longitude": -86.0066386
    },
    {
        "geoid": 129056,
        "type": "city",
        "place": "Gardendale",
        "region": "AL",
        "country": "US",
        "latitude": 33.6601033,
        "longitude": -86.8127702
    },
    {
        "geoid": 129464,
        "type": "city",
        "place": "Geneva",
        "region": "AL",
        "country": "US",
        "latitude": 31.0329572,
        "longitude": -85.8638242
    },
    {
        "geoid": 129992,
        "type": "city",
        "place": "Glencoe",
        "region": "AL",
        "country": "US",
        "latitude": 33.957043,
        "longitude": -85.93246979999999
    },
    {
        "geoid": 130496,
        "type": "city",
        "place": "Good Hope",
        "region": "AL",
        "country": "US",
        "latitude": 34.1171572,
        "longitude": -86.862231
    },
    {
        "geoid": 131384,
        "type": "city",
        "place": "Graysville",
        "region": "AL",
        "country": "US",
        "latitude": 33.6206611,
        "longitude": -86.97138439999999
    },
    {
        "geoid": 131720,
        "type": "city",
        "place": "Greensboro",
        "region": "AL",
        "country": "US",
        "latitude": 32.7045753,
        "longitude": -87.59583959999999
    },
    {
        "geoid": 131912,
        "type": "city",
        "place": "Greenville",
        "region": "AL",
        "country": "US",
        "latitude": 31.8295972,
        "longitude": -86.6177517
    },
    {
        "geoid": 132224,
        "type": "city",
        "place": "Guin",
        "region": "AL",
        "country": "US",
        "latitude": 33.9656594,
        "longitude": -87.91474939999999
    },
    {
        "geoid": 132272,
        "type": "city",
        "place": "Gulf Shores",
        "region": "AL",
        "country": "US",
        "latitude": 30.2460361,
        "longitude": -87.70081929999999
    },
    {
        "geoid": 132416,
        "type": "city",
        "place": "Guntersville",
        "region": "AL",
        "country": "US",
        "latitude": 34.3581473,
        "longitude": -86.29470409999999
    },
    {
        "geoid": 132704,
        "type": "city",
        "place": "Haleyville",
        "region": "AL",
        "country": "US",
        "latitude": 34.226488,
        "longitude": -87.6214133
    },
    {
        "geoid": 132848,
        "type": "city",
        "place": "Hamilton",
        "region": "AL",
        "country": "US",
        "latitude": 34.1423235,
        "longitude": -87.98864379999999
    },
    {
        "geoid": 132968,
        "type": "city",
        "place": "Hanceville",
        "region": "AL",
        "country": "US",
        "latitude": 34.0606545,
        "longitude": -86.76749799999999
    },
    {
        "geoid": 133424,
        "type": "city",
        "place": "Hartford",
        "region": "AL",
        "country": "US",
        "latitude": 31.1023998,
        "longitude": -85.6968778
    },
    {
        "geoid": 133448,
        "type": "city",
        "place": "Hartselle",
        "region": "AL",
        "country": "US",
        "latitude": 34.4434282,
        "longitude": -86.9352842
    },
    {
        "geoid": 133856,
        "type": "city",
        "place": "Headland",
        "region": "AL",
        "country": "US",
        "latitude": 31.351284,
        "longitude": -85.3421559
    },
    {
        "geoid": 133976,
        "type": "city",
        "place": "Heflin",
        "region": "AL",
        "country": "US",
        "latitude": 33.6444926,
        "longitude": -85.5842385
    },
    {
        "geoid": 134024,
        "type": "city",
        "place": "Helena",
        "region": "AL",
        "country": "US",
        "latitude": 33.296224,
        "longitude": -86.8436004
    },
    {
        "geoid": 134096,
        "type": "city",
        "place": "Henagar",
        "region": "AL",
        "country": "US",
        "latitude": 34.635084,
        "longitude": -85.7671936
    },
    {
        "geoid": 135392,
        "type": "city",
        "place": "Hokes Bluff",
        "region": "AL",
        "country": "US",
        "latitude": 33.9981546,
        "longitude": -85.8663574
    },
    {
        "geoid": 135800,
        "type": "city",
        "place": "Homewood",
        "region": "AL",
        "country": "US",
        "latitude": 33.4717732,
        "longitude": -86.80082279999999
    },
    {
        "geoid": 135896,
        "type": "city",
        "place": "Hoover",
        "region": "AL",
        "country": "US",
        "latitude": 33.4053867,
        "longitude": -86.8113781
    },
    {
        "geoid": 136448,
        "type": "city",
        "place": "Hueytown",
        "region": "AL",
        "country": "US",
        "latitude": 33.4512197,
        "longitude": -86.9966606
    },
    {
        "geoid": 137000,
        "type": "city",
        "place": "Huntsville",
        "region": "AL",
        "country": "US",
        "latitude": 34.7303688,
        "longitude": -86.5861037
    },
    {
        "geoid": 137465,
        "type": "city",
        "place": "Indian Springs Village",
        "region": "AL",
        "country": "US",
        "latitude": 33.35951430000001,
        "longitude": -86.7491802
    },
    {
        "geoid": 137864,
        "type": "city",
        "place": "Irondale",
        "region": "AL",
        "country": "US",
        "latitude": 33.5381601,
        "longitude": -86.70721019999999
    },
    {
        "geoid": 138152,
        "type": "city",
        "place": "Jackson",
        "region": "AL",
        "country": "US",
        "latitude": 31.5090521,
        "longitude": -87.8944435
    },
    {
        "geoid": 138272,
        "type": "city",
        "place": "Jacksonville",
        "region": "AL",
        "country": "US",
        "latitude": 33.8137125,
        "longitude": -85.76135359999999
    },
    {
        "geoid": 138416,
        "type": "city",
        "place": "Jasper",
        "region": "AL",
        "country": "US",
        "latitude": 33.8312185,
        "longitude": -87.2775053
    },
    {
        "geoid": 138608,
        "type": "city",
        "place": "Jemison",
        "region": "AL",
        "country": "US",
        "latitude": 32.9598451,
        "longitude": -86.7466522
    },
    {
        "geoid": 139856,
        "type": "city",
        "place": "Kimberly",
        "region": "AL",
        "country": "US",
        "latitude": 33.7734352,
        "longitude": -86.81388319999999
    },
    {
        "geoid": 140672,
        "type": "city",
        "place": "La Fayette",
        "region": "AL",
        "country": "US",
        "latitude": 32.899776,
        "longitude": -85.40115879999999
    },
    {
        "geoid": 141296,
        "type": "city",
        "place": "Lanett",
        "region": "AL",
        "country": "US",
        "latitude": 32.86873910000001,
        "longitude": -85.1904971
    },
    {
        "geoid": 141968,
        "type": "city",
        "place": "Leeds",
        "region": "AL",
        "country": "US",
        "latitude": 33.5481597,
        "longitude": -86.54442879999999
    },
    {
        "geoid": 143120,
        "type": "city",
        "place": "Lincoln",
        "region": "AL",
        "country": "US",
        "latitude": 33.6131588,
        "longitude": -86.1183061
    },
    {
        "geoid": 143240,
        "type": "city",
        "place": "Linden",
        "region": "AL",
        "country": "US",
        "latitude": 32.3062534,
        "longitude": -87.7980665
    },
    {
        "geoid": 143264,
        "type": "city",
        "place": "Lineville",
        "region": "AL",
        "country": "US",
        "latitude": 33.3106696,
        "longitude": -85.7544051
    },
    {
        "geoid": 143336,
        "type": "city",
        "place": "Lipscomb",
        "region": "AL",
        "country": "US",
        "latitude": 33.4256646,
        "longitude": -86.9266588
    },
    {
        "geoid": 143720,
        "type": "city",
        "place": "Livingston",
        "region": "AL",
        "country": "US",
        "latitude": 32.5843025,
        "longitude": -88.1872475
    },
    {
        "geoid": 144728,
        "type": "city",
        "place": "Luverne",
        "region": "AL",
        "country": "US",
        "latitude": 31.7165455,
        "longitude": -86.2638492
    },
    {
        "geoid": 145784,
        "type": "city",
        "place": "Madison",
        "region": "AL",
        "country": "US",
        "latitude": 34.6992579,
        "longitude": -86.74833180000002
    },
    {
        "geoid": 146768,
        "type": "city",
        "place": "Marion",
        "region": "AL",
        "country": "US",
        "latitude": 32.6323536,
        "longitude": -87.3191655
    },
    {
        "geoid": 148376,
        "type": "city",
        "place": "Midfield",
        "region": "AL",
        "country": "US",
        "latitude": 33.4614078,
        "longitude": -86.9086811
    },
    {
        "geoid": 148712,
        "type": "city",
        "place": "Millbrook",
        "region": "AL",
        "country": "US",
        "latitude": 32.4798575,
        "longitude": -86.36191629999999
    },
    {
        "geoid": 150000,
        "type": "city",
        "place": "Mobile",
        "region": "AL",
        "country": "US",
        "latitude": 30.6953657,
        "longitude": -88.0398912
    },
    {
        "geoid": 150192,
        "type": "city",
        "place": "Monroeville",
        "region": "AL",
        "country": "US",
        "latitude": 31.5279399,
        "longitude": -87.32470769999999
    },
    {
        "geoid": 150312,
        "type": "city",
        "place": "Montevallo",
        "region": "AL",
        "country": "US",
        "latitude": 33.1006746,
        "longitude": -86.86415579999999
    },
    {
        "geoid": 151000,
        "type": "city",
        "place": "Montgomery",
        "region": "AL",
        "country": "US",
        "latitude": 32.3792233,
        "longitude": -86.3077368
    },
    {
        "geoid": 151096,
        "type": "city",
        "place": "Moody",
        "region": "AL",
        "country": "US",
        "latitude": 33.5909365,
        "longitude": -86.49081679999999
    },
    {
        "geoid": 151600,
        "type": "city",
        "place": "Moulton",
        "region": "AL",
        "country": "US",
        "latitude": 34.4812062,
        "longitude": -87.29335329999999
    },
    {
        "geoid": 151696,
        "type": "city",
        "place": "Mountain Brook",
        "region": "AL",
        "country": "US",
        "latitude": 33.5009384,
        "longitude": -86.75221069999999
    },
    {
        "geoid": 153016,
        "type": "city",
        "place": "Muscle Shoals",
        "region": "AL",
        "country": "US",
        "latitude": 34.7448112,
        "longitude": -87.66752919999999
    },
    {
        "geoid": 154168,
        "type": "city",
        "place": "New Hope",
        "region": "AL",
        "country": "US",
        "latitude": 34.5370339,
        "longitude": -86.3944307
    },
    {
        "geoid": 155200,
        "type": "city",
        "place": "Northport",
        "region": "AL",
        "country": "US",
        "latitude": 33.229007,
        "longitude": -87.5772293
    },
    {
        "geoid": 156400,
        "type": "city",
        "place": "Odenville",
        "region": "AL",
        "country": "US",
        "latitude": 33.6773237,
        "longitude": -86.396648
    },
    {
        "geoid": 157000,
        "type": "city",
        "place": "Oneonta",
        "region": "AL",
        "country": "US",
        "latitude": 33.9481537,
        "longitude": -86.472764
    },
    {
        "geoid": 157048,
        "type": "city",
        "place": "Opelika",
        "region": "AL",
        "country": "US",
        "latitude": 32.6454116,
        "longitude": -85.3782795
    },
    {
        "geoid": 157120,
        "type": "city",
        "place": "Opp",
        "region": "AL",
        "country": "US",
        "latitude": 31.2826685,
        "longitude": -86.2555067
    },
    {
        "geoid": 157144,
        "type": "city",
        "place": "Orange Beach",
        "region": "AL",
        "country": "US",
        "latitude": 30.2697033,
        "longitude": -87.5867598
    },
    {
        "geoid": 157576,
        "type": "city",
        "place": "Oxford",
        "region": "AL",
        "country": "US",
        "latitude": 33.6142714,
        "longitude": -85.8349648
    },
    {
        "geoid": 157648,
        "type": "city",
        "place": "Ozark",
        "region": "AL",
        "country": "US",
        "latitude": 31.459017,
        "longitude": -85.640289
    },
    {
        "geoid": 158848,
        "type": "city",
        "place": "Pelham",
        "region": "AL",
        "country": "US",
        "latitude": 33.2856687,
        "longitude": -86.8099885
    },
    {
        "geoid": 158896,
        "type": "city",
        "place": "Pell City",
        "region": "AL",
        "country": "US",
        "latitude": 33.5862149,
        "longitude": -86.2860888
    },
    {
        "geoid": 159472,
        "type": "city",
        "place": "Phenix City",
        "region": "AL",
        "country": "US",
        "latitude": 32.4709761,
        "longitude": -85.0007653
    },
    {
        "geoid": 159640,
        "type": "city",
        "place": "Piedmont",
        "region": "AL",
        "country": "US",
        "latitude": 33.9245454,
        "longitude": -85.6113501
    },
    {
        "geoid": 160648,
        "type": "city",
        "place": "Pinson",
        "region": "AL",
        "country": "US",
        "latitude": 33.6889908,
        "longitude": -86.6833228
    },
    {
        "geoid": 161008,
        "type": "city",
        "place": "Pleasant Grove",
        "region": "AL",
        "country": "US",
        "latitude": 33.4909405,
        "longitude": -86.9702714
    },
    {
        "geoid": 162328,
        "type": "city",
        "place": "Prattville",
        "region": "AL",
        "country": "US",
        "latitude": 32.4640245,
        "longitude": -86.4596966
    },
    {
        "geoid": 162496,
        "type": "city",
        "place": "Prichard",
        "region": "AL",
        "country": "US",
        "latitude": 30.74515449999999,
        "longitude": -88.0896618
    },
    {
        "geoid": 163288,
        "type": "city",
        "place": "Rainbow City",
        "region": "AL",
        "country": "US",
        "latitude": 33.9548201,
        "longitude": -86.04191689999999
    },
    {
        "geoid": 163336,
        "type": "city",
        "place": "Rainsville",
        "region": "AL",
        "country": "US",
        "latitude": 34.4942536,
        "longitude": -85.8477494
    },
    {
        "geoid": 163576,
        "type": "city",
        "place": "Red Bay",
        "region": "AL",
        "country": "US",
        "latitude": 34.4398202,
        "longitude": -88.1408747
    },
    {
        "geoid": 164920,
        "type": "city",
        "place": "Riverside",
        "region": "AL",
        "country": "US",
        "latitude": 33.6054805,
        "longitude": -86.20351219999999
    },
    {
        "geoid": 165040,
        "type": "city",
        "place": "Roanoke",
        "region": "AL",
        "country": "US",
        "latitude": 33.1512313,
        "longitude": -85.37217079999999
    },
    {
        "geoid": 165208,
        "type": "city",
        "place": "Robertsdale",
        "region": "AL",
        "country": "US",
        "latitude": 30.5538048,
        "longitude": -87.7119324
    },
    {
        "geoid": 167056,
        "type": "city",
        "place": "Russellville",
        "region": "AL",
        "country": "US",
        "latitude": 34.5078726,
        "longitude": -87.7286431
    },
    {
        "geoid": 167800,
        "type": "city",
        "place": "Samson",
        "region": "AL",
        "country": "US",
        "latitude": 31.1129539,
        "longitude": -86.0460518
    },
    {
        "geoid": 168160,
        "type": "city",
        "place": "Saraland",
        "region": "AL",
        "country": "US",
        "latitude": 30.820742,
        "longitude": -88.07055559999999
    },
    {
        "geoid": 168352,
        "type": "city",
        "place": "Satsuma",
        "region": "AL",
        "country": "US",
        "latitude": 30.853241,
        "longitude": -88.0561106
    },
    {
        "geoid": 168736,
        "type": "city",
        "place": "Scottsboro",
        "region": "AL",
        "country": "US",
        "latitude": 34.6723069,
        "longitude": -86.03414629999999
    },
    {
        "geoid": 169120,
        "type": "city",
        "place": "Selma",
        "region": "AL",
        "country": "US",
        "latitude": 32.4073589,
        "longitude": -87.02110069999999
    },
    {
        "geoid": 169240,
        "type": "city",
        "place": "Semmes",
        "region": "AL",
        "country": "US",
        "latitude": 30.7623745,
        "longitude": -88.2255319
    },
    {
        "geoid": 169648,
        "type": "city",
        "place": "Sheffield",
        "region": "AL",
        "country": "US",
        "latitude": 34.7650887,
        "longitude": -87.6986407
    },
    {
        "geoid": 171040,
        "type": "city",
        "place": "Slocomb",
        "region": "AL",
        "country": "US",
        "latitude": 31.1082335,
        "longitude": -85.59437799999999
    },
    {
        "geoid": 171190,
        "type": "city",
        "place": "Smiths Station",
        "region": "AL",
        "country": "US",
        "latitude": 32.5401393,
        "longitude": -85.09854729999999
    },
    {
        "geoid": 171832,
        "type": "city",
        "place": "Southside",
        "region": "AL",
        "country": "US",
        "latitude": 33.9245425,
        "longitude": -86.02247179999999
    },
    {
        "geoid": 171976,
        "type": "city",
        "place": "Spanish Fort",
        "region": "AL",
        "country": "US",
        "latitude": 30.6685159,
        "longitude": -87.9108534
    },
    {
        "geoid": 172600,
        "type": "city",
        "place": "Springville",
        "region": "AL",
        "country": "US",
        "latitude": 33.7750997,
        "longitude": -86.4716512
    },
    {
        "geoid": 173080,
        "type": "city",
        "place": "Stevenson",
        "region": "AL",
        "country": "US",
        "latitude": 34.8686932,
        "longitude": -85.8394199
    },
    {
        "geoid": 173728,
        "type": "city",
        "place": "Sulligent",
        "region": "AL",
        "country": "US",
        "latitude": 33.9017738,
        "longitude": -88.1344776
    },
    {
        "geoid": 173848,
        "type": "city",
        "place": "Sumiton",
        "region": "AL",
        "country": "US",
        "latitude": 33.7556606,
        "longitude": -87.04999920000002
    },
    {
        "geoid": 174352,
        "type": "city",
        "place": "Sylacauga",
        "region": "AL",
        "country": "US",
        "latitude": 33.1731716,
        "longitude": -86.2516406
    },
    {
        "geoid": 174592,
        "type": "city",
        "place": "Talladega",
        "region": "AL",
        "country": "US",
        "latitude": 33.4359416,
        "longitude": -86.1058048
    },
    {
        "geoid": 174688,
        "type": "city",
        "place": "Tallassee",
        "region": "AL",
        "country": "US",
        "latitude": 32.5359683,
        "longitude": -85.8932923
    },
    {
        "geoid": 174976,
        "type": "city",
        "place": "Tarrant",
        "region": "AL",
        "country": "US",
        "latitude": 33.586822,
        "longitude": -86.7718017
    },
    {
        "geoid": 175960,
        "type": "city",
        "place": "Thomasville",
        "region": "AL",
        "country": "US",
        "latitude": 31.9134859,
        "longitude": -87.7358366
    },
    {
        "geoid": 176920,
        "type": "city",
        "place": "Troy",
        "region": "AL",
        "country": "US",
        "latitude": 31.8087678,
        "longitude": -85.969951
    },
    {
        "geoid": 176944,
        "type": "city",
        "place": "Trussville",
        "region": "AL",
        "country": "US",
        "latitude": 33.6198251,
        "longitude": -86.60887559999999
    },
    {
        "geoid": 177256,
        "type": "city",
        "place": "Tuscaloosa",
        "region": "AL",
        "country": "US",
        "latitude": 33.2098407,
        "longitude": -87.56917349999999
    },
    {
        "geoid": 177280,
        "type": "city",
        "place": "Tuscumbia",
        "region": "AL",
        "country": "US",
        "latitude": 34.7312005,
        "longitude": -87.70253
    },
    {
        "geoid": 177304,
        "type": "city",
        "place": "Tuskegee",
        "region": "AL",
        "country": "US",
        "latitude": 32.430237,
        "longitude": -85.7077266
    },
    {
        "geoid": 177880,
        "type": "city",
        "place": "Union Springs",
        "region": "AL",
        "country": "US",
        "latitude": 32.144316,
        "longitude": -85.7149495
    },
    {
        "geoid": 178204,
        "type": "city",
        "place": "Valley",
        "region": "AL",
        "country": "US",
        "latitude": 32.8187406,
        "longitude": -85.1793852
    },
    {
        "geoid": 178232,
        "type": "city",
        "place": "Valley Grande",
        "region": "AL",
        "country": "US",
        "latitude": 32.5090233,
        "longitude": -86.9874899
    },
    {
        "geoid": 178480,
        "type": "city",
        "place": "Vernon",
        "region": "AL",
        "country": "US",
        "latitude": 33.7570541,
        "longitude": -88.1089185
    },
    {
        "geoid": 178552,
        "type": "city",
        "place": "Vestavia Hills",
        "region": "AL",
        "country": "US",
        "latitude": 33.4487183,
        "longitude": -86.7877668
    },
    {
        "geoid": 179944,
        "type": "city",
        "place": "Warrior",
        "region": "AL",
        "country": "US",
        "latitude": 33.8142682,
        "longitude": -86.8094394
    },
    {
        "geoid": 180352,
        "type": "city",
        "place": "Weaver",
        "region": "AL",
        "country": "US",
        "latitude": 33.7520456,
        "longitude": -85.81135429999999
    },
    {
        "geoid": 181720,
        "type": "city",
        "place": "Wetumpka",
        "region": "AL",
        "country": "US",
        "latitude": 32.5437448,
        "longitude": -86.2119127
    },
    {
        "geoid": 182992,
        "type": "city",
        "place": "Winfield",
        "region": "AL",
        "country": "US",
        "latitude": 33.928993,
        "longitude": -87.8172457
    },
    {
        "geoid": 184096,
        "type": "city",
        "place": "York",
        "region": "AL",
        "country": "US",
        "latitude": 32.4862491,
        "longitude": -88.29641830000001
    },
    {
        "geoid": 200065,
        "type": "city",
        "place": "Adak",
        "region": "AK",
        "country": "US",
        "latitude": 51.8667982,
        "longitude": -176.6385354
    },
    {
        "geoid": 200650,
        "type": "city",
        "place": "Akhiok",
        "region": "AK",
        "country": "US",
        "latitude": 56.9451884,
        "longitude": -154.1680075
    },
    {
        "geoid": 200870,
        "type": "city",
        "place": "Akiak",
        "region": "AK",
        "country": "US",
        "latitude": 60.9088356,
        "longitude": -161.2216022
    },
    {
        "geoid": 201090,
        "type": "city",
        "place": "Akutan",
        "region": "AK",
        "country": "US",
        "latitude": 54.1336126,
        "longitude": -165.7753862
    },
    {
        "geoid": 201200,
        "type": "city",
        "place": "Alakanuk",
        "region": "AK",
        "country": "US",
        "latitude": 62.6845398,
        "longitude": -164.6464474
    },
    {
        "geoid": 201420,
        "type": "city",
        "place": "Aleknagik",
        "region": "AK",
        "country": "US",
        "latitude": 59.27942090000001,
        "longitude": -158.6210674
    },
    {
        "geoid": 201860,
        "type": "city",
        "place": "Allakaket",
        "region": "AK",
        "country": "US",
        "latitude": 66.56444929999999,
        "longitude": -152.6480277
    },
    {
        "geoid": 201970,
        "type": "city",
        "place": "Ambler",
        "region": "AK",
        "country": "US",
        "latitude": 67.0867227,
        "longitude": -157.8581339
    },
    {
        "geoid": 202080,
        "type": "city",
        "place": "Anaktuvuk Pass",
        "region": "AK",
        "country": "US",
        "latitude": 68.1433076,
        "longitude": -151.7328707
    },
    {
        "geoid": 203220,
        "type": "city",
        "place": "Anderson",
        "region": "AK",
        "country": "US",
        "latitude": 64.34721379999999,
        "longitude": -149.1888135
    },
    {
        "geoid": 203440,
        "type": "city",
        "place": "Angoon",
        "region": "AK",
        "country": "US",
        "latitude": 57.5004523,
        "longitude": -134.582314
    },
    {
        "geoid": 203550,
        "type": "city",
        "place": "Aniak",
        "region": "AK",
        "country": "US",
        "latitude": 61.58287369999999,
        "longitude": -159.5431623
    },
    {
        "geoid": 203880,
        "type": "city",
        "place": "Anvik",
        "region": "AK",
        "country": "US",
        "latitude": 62.6526383,
        "longitude": -160.198343
    },
    {
        "geoid": 204210,
        "type": "city",
        "place": "Atka",
        "region": "AK",
        "country": "US",
        "latitude": 52.2099851,
        "longitude": -174.2030272
    },
    {
        "geoid": 204500,
        "type": "city",
        "place": "Atqasuk",
        "region": "AK",
        "country": "US",
        "latitude": 70.4788962,
        "longitude": -157.4165256
    },
    {
        "geoid": 206520,
        "type": "city",
        "place": "Bethel",
        "region": "AK",
        "country": "US",
        "latitude": 60.79425899999999,
        "longitude": -161.7694402
    },
    {
        "geoid": 206630,
        "type": "city",
        "place": "Bettles",
        "region": "AK",
        "country": "US",
        "latitude": 66.9165632,
        "longitude": -151.5170272
    },
    {
        "geoid": 208740,
        "type": "city",
        "place": "Brevig Mission",
        "region": "AK",
        "country": "US",
        "latitude": 65.33482839999999,
        "longitude": -166.4888757
    },
    {
        "geoid": 209600,
        "type": "city",
        "place": "Buckland",
        "region": "AK",
        "country": "US",
        "latitude": 65.97880119999999,
        "longitude": -161.1247539
    },
    {
        "geoid": 212680,
        "type": "city",
        "place": "Chefornak",
        "region": "AK",
        "country": "US",
        "latitude": 60.1578885,
        "longitude": -164.2835559
    },
    {
        "geoid": 213230,
        "type": "city",
        "place": "Chevak",
        "region": "AK",
        "country": "US",
        "latitude": 61.5277895,
        "longitude": -165.5887686
    },
    {
        "geoid": 213550,
        "type": "city",
        "place": "Chignik",
        "region": "AK",
        "country": "US",
        "latitude": 56.29530279999999,
        "longitude": -158.4044923
    },
    {
        "geoid": 214330,
        "type": "city",
        "place": "Chuathbaluk",
        "region": "AK",
        "country": "US",
        "latitude": 61.57194440000001,
        "longitude": -159.245
    },
    {
        "geoid": 215430,
        "type": "city",
        "place": "Clark's Point",
        "region": "AK",
        "country": "US",
        "latitude": 58.837194,
        "longitude": -158.5317848
    },
    {
        "geoid": 216360,
        "type": "city",
        "place": "Coffman Cove",
        "region": "AK",
        "country": "US",
        "latitude": 56.0122776,
        "longitude": -132.8215663
    },
    {
        "geoid": 216530,
        "type": "city",
        "place": "Cold Bay",
        "region": "AK",
        "country": "US",
        "latitude": 55.2062621,
        "longitude": -162.7174221
    },
    {
        "geoid": 217410,
        "type": "city",
        "place": "Cordova",
        "region": "AK",
        "country": "US",
        "latitude": 60.5424087,
        "longitude": -145.7525414
    },
    {
        "geoid": 217740,
        "type": "city",
        "place": "Craig",
        "region": "AK",
        "country": "US",
        "latitude": 55.4768501,
        "longitude": -133.1358066
    },
    {
        "geoid": 218510,
        "type": "city",
        "place": "Deering",
        "region": "AK",
        "country": "US",
        "latitude": 66.07518739999999,
        "longitude": -162.7207754
    },
    {
        "geoid": 218620,
        "type": "city",
        "place": "Delta Junction",
        "region": "AK",
        "country": "US",
        "latitude": 64.0400726,
        "longitude": -145.7343509
    },
    {
        "geoid": 218950,
        "type": "city",
        "place": "Dillingham",
        "region": "AK",
        "country": "US",
        "latitude": 59.0395277,
        "longitude": -158.4633056
    },
    {
        "geoid": 219060,
        "type": "city",
        "place": "Diomede",
        "region": "AK",
        "country": "US",
        "latitude": 65.7594706,
        "longitude": -168.9504794
    },
    {
        "geoid": 220380,
        "type": "city",
        "place": "Eagle",
        "region": "AK",
        "country": "US",
        "latitude": 64.7871056,
        "longitude": -141.2026613
    },
    {
        "geoid": 220970,
        "type": "city",
        "place": "Edna Bay",
        "region": "AK",
        "country": "US",
        "latitude": 55.9573084,
        "longitude": -133.6593223
    },
    {
        "geoid": 221040,
        "type": "city",
        "place": "Eek",
        "region": "AK",
        "country": "US",
        "latitude": 60.21678370000001,
        "longitude": -162.0264471
    },
    {
        "geoid": 221150,
        "type": "city",
        "place": "Egegik",
        "region": "AK",
        "country": "US",
        "latitude": 58.21373699999999,
        "longitude": -157.3742534
    },
    {
        "geoid": 221810,
        "type": "city",
        "place": "Ekwok",
        "region": "AK",
        "country": "US",
        "latitude": 59.35000729999999,
        "longitude": -157.474768
    },
    {
        "geoid": 222250,
        "type": "city",
        "place": "Elim",
        "region": "AK",
        "country": "US",
        "latitude": 64.61796559999999,
        "longitude": -162.2591096
    },
    {
        "geoid": 222910,
        "type": "city",
        "place": "Emmonak",
        "region": "AK",
        "country": "US",
        "latitude": 62.7774255,
        "longitude": -164.529331
    },
    {
        "geoid": 224230,
        "type": "city",
        "place": "Fairbanks",
        "region": "AK",
        "country": "US",
        "latitude": 64.8400511,
        "longitude": -147.7199756
    },
    {
        "geoid": 224660,
        "type": "city",
        "place": "False Pass",
        "region": "AK",
        "country": "US",
        "latitude": 54.8548006,
        "longitude": -163.4141725
    },
    {
        "geoid": 226760,
        "type": "city",
        "place": "Fort Yukon",
        "region": "AK",
        "country": "US",
        "latitude": 66.5636571,
        "longitude": -145.2486502
    },
    {
        "geoid": 227530,
        "type": "city",
        "place": "Galena",
        "region": "AK",
        "country": "US",
        "latitude": 64.74126050000001,
        "longitude": -156.871111
    },
    {
        "geoid": 227640,
        "type": "city",
        "place": "Gambell",
        "region": "AK",
        "country": "US",
        "latitude": 63.77766500000001,
        "longitude": -171.7326445
    },
    {
        "geoid": 229180,
        "type": "city",
        "place": "Golovin",
        "region": "AK",
        "country": "US",
        "latitude": 64.54506669999999,
        "longitude": -163.036256
    },
    {
        "geoid": 229290,
        "type": "city",
        "place": "Goodnews Bay",
        "region": "AK",
        "country": "US",
        "latitude": 59.1175331,
        "longitude": -161.5842091
    },
    {
        "geoid": 230060,
        "type": "city",
        "place": "Grayling",
        "region": "AK",
        "country": "US",
        "latitude": 62.91269459999999,
        "longitude": -160.0687543
    },
    {
        "geoid": 230940,
        "type": "city",
        "place": "Gustavus",
        "region": "AK",
        "country": "US",
        "latitude": 58.4126017,
        "longitude": -135.7389018
    },
    {
        "geoid": 233030,
        "type": "city",
        "place": "Holy Cross",
        "region": "AK",
        "country": "US",
        "latitude": 62.19944439999999,
        "longitude": -159.7713889
    },
    {
        "geoid": 233140,
        "type": "city",
        "place": "Homer",
        "region": "AK",
        "country": "US",
        "latitude": 59.64808550000001,
        "longitude": -151.5299245
    },
    {
        "geoid": 233360,
        "type": "city",
        "place": "Hoonah",
        "region": "AK",
        "country": "US",
        "latitude": 58.11005059999999,
        "longitude": -135.4445
    },
    {
        "geoid": 233470,
        "type": "city",
        "place": "Hooper Bay",
        "region": "AK",
        "country": "US",
        "latitude": 61.5280339,
        "longitude": -166.1076193
    },
    {
        "geoid": 233800,
        "type": "city",
        "place": "Houston",
        "region": "AK",
        "country": "US",
        "latitude": 61.62086249999999,
        "longitude": -149.7562659
    },
    {
        "geoid": 233910,
        "type": "city",
        "place": "Hughes",
        "region": "AK",
        "country": "US",
        "latitude": 66.04643039999999,
        "longitude": -154.258182
    },
    {
        "geoid": 234350,
        "type": "city",
        "place": "Huslia",
        "region": "AK",
        "country": "US",
        "latitude": 65.7011617,
        "longitude": -156.3844373
    },
    {
        "geoid": 234460,
        "type": "city",
        "place": "Hydaburg",
        "region": "AK",
        "country": "US",
        "latitude": 55.2074214,
        "longitude": -132.8275439
    },
    {
        "geoid": 236540,
        "type": "city",
        "place": "Kachemak",
        "region": "AK",
        "country": "US",
        "latitude": 59.67177239999999,
        "longitude": -151.4322932
    },
    {
        "geoid": 236770,
        "type": "city",
        "place": "Kake",
        "region": "AK",
        "country": "US",
        "latitude": 56.97669380000001,
        "longitude": -133.9461823
    },
    {
        "geoid": 236990,
        "type": "city",
        "place": "Kaktovik",
        "region": "AK",
        "country": "US",
        "latitude": 70.1301349,
        "longitude": -143.6205804
    },
    {
        "geoid": 237430,
        "type": "city",
        "place": "Kaltag",
        "region": "AK",
        "country": "US",
        "latitude": 64.3279408,
        "longitude": -158.7261772
    },
    {
        "geoid": 237650,
        "type": "city",
        "place": "Kasaan",
        "region": "AK",
        "country": "US",
        "latitude": 55.5399652,
        "longitude": -132.4008829
    },
    {
        "geoid": 238420,
        "type": "city",
        "place": "Kenai",
        "region": "AK",
        "country": "US",
        "latitude": 60.55491139999999,
        "longitude": -151.2597037
    },
    {
        "geoid": 238970,
        "type": "city",
        "place": "Ketchikan",
        "region": "AK",
        "country": "US",
        "latitude": 55.34222219999999,
        "longitude": -131.6461111
    },
    {
        "geoid": 239300,
        "type": "city",
        "place": "Kiana",
        "region": "AK",
        "country": "US",
        "latitude": 66.9725768,
        "longitude": -160.4308608
    },
    {
        "geoid": 239410,
        "type": "city",
        "place": "King Cove",
        "region": "AK",
        "country": "US",
        "latitude": 55.0593868,
        "longitude": -162.3130507
    },
    {
        "geoid": 239960,
        "type": "city",
        "place": "Kivalina",
        "region": "AK",
        "country": "US",
        "latitude": 67.7272945,
        "longitude": -164.5386627
    },
    {
        "geoid": 240400,
        "type": "city",
        "place": "Klawock",
        "region": "AK",
        "country": "US",
        "latitude": 55.5520852,
        "longitude": -133.081983
    },
    {
        "geoid": 240840,
        "type": "city",
        "place": "Kobuk",
        "region": "AK",
        "country": "US",
        "latitude": 66.9080298,
        "longitude": -156.8838857
    },
    {
        "geoid": 240950,
        "type": "city",
        "place": "Kodiak",
        "region": "AK",
        "country": "US",
        "latitude": 57.79000000000001,
        "longitude": -152.4072222
    },
    {
        "geoid": 241720,
        "type": "city",
        "place": "Kotlik",
        "region": "AK",
        "country": "US",
        "latitude": 63.03330899999999,
        "longitude": -163.5459273
    },
    {
        "geoid": 241830,
        "type": "city",
        "place": "Kotzebue",
        "region": "AK",
        "country": "US",
        "latitude": 66.8969151,
        "longitude": -162.5930667
    },
    {
        "geoid": 241940,
        "type": "city",
        "place": "Koyuk",
        "region": "AK",
        "country": "US",
        "latitude": 64.93103900000001,
        "longitude": -161.1636986
    },
    {
        "geoid": 242050,
        "type": "city",
        "place": "Koyukuk",
        "region": "AK",
        "country": "US",
        "latitude": 64.88299529999999,
        "longitude": -157.7024839
    },
    {
        "geoid": 242160,
        "type": "city",
        "place": "Kupreanof",
        "region": "AK",
        "country": "US",
        "latitude": 56.81444440000001,
        "longitude": -132.9805556
    },
    {
        "geoid": 242380,
        "type": "city",
        "place": "Kwethluk",
        "region": "AK",
        "country": "US",
        "latitude": 60.81031160000001,
        "longitude": -161.4247474
    },
    {
        "geoid": 243040,
        "type": "city",
        "place": "Larsen Bay",
        "region": "AK",
        "country": "US",
        "latitude": 57.53678489999999,
        "longitude": -153.9818971
    },
    {
        "geoid": 245460,
        "type": "city",
        "place": "Lower Kalskag",
        "region": "AK",
        "country": "US",
        "latitude": 61.5114542,
        "longitude": -160.3633267
    },
    {
        "geoid": 246010,
        "type": "city",
        "place": "McGrath",
        "region": "AK",
        "country": "US",
        "latitude": 62.95598949999999,
        "longitude": -155.5988928
    },
    {
        "geoid": 246890,
        "type": "city",
        "place": "Manokotak",
        "region": "AK",
        "country": "US",
        "latitude": 58.98070569999999,
        "longitude": -159.0571547
    },
    {
        "geoid": 247000,
        "type": "city",
        "place": "Marshall",
        "region": "AK",
        "country": "US",
        "latitude": 61.87785119999999,
        "longitude": -162.0837725
    },
    {
        "geoid": 247990,
        "type": "city",
        "place": "Mekoryuk",
        "region": "AK",
        "country": "US",
        "latitude": 60.3873322,
        "longitude": -166.1903478
    },
    {
        "geoid": 251180,
        "type": "city",
        "place": "Mountain Village",
        "region": "AK",
        "country": "US",
        "latitude": 62.0853556,
        "longitude": -163.7292306
    },
    {
        "geoid": 252390,
        "type": "city",
        "place": "Napakiak",
        "region": "AK",
        "country": "US",
        "latitude": 60.69582690000001,
        "longitude": -161.9780151
    },
    {
        "geoid": 252720,
        "type": "city",
        "place": "Napaskiak",
        "region": "AK",
        "country": "US",
        "latitude": 60.7075019,
        "longitude": -161.7645543
    },
    {
        "geoid": 253050,
        "type": "city",
        "place": "Nenana",
        "region": "AK",
        "country": "US",
        "latitude": 64.5633957,
        "longitude": -149.0938987
    },
    {
        "geoid": 253270,
        "type": "city",
        "place": "Newhalen",
        "region": "AK",
        "country": "US",
        "latitude": 59.72480559999999,
        "longitude": -154.8942544
    },
    {
        "geoid": 253710,
        "type": "city",
        "place": "New Stuyahok",
        "region": "AK",
        "country": "US",
        "latitude": 59.4514032,
        "longitude": -157.3143897
    },
    {
        "geoid": 253930,
        "type": "city",
        "place": "Nightmute",
        "region": "AK",
        "country": "US",
        "latitude": 60.4774176,
        "longitude": -164.7210002
    },
    {
        "geoid": 254150,
        "type": "city",
        "place": "Nikolai",
        "region": "AK",
        "country": "US",
        "latitude": 63.0128103,
        "longitude": -154.3745486
    },
    {
        "geoid": 254920,
        "type": "city",
        "place": "Nome",
        "region": "AK",
        "country": "US",
        "latitude": 64.50059089999999,
        "longitude": -165.4086406
    },
    {
        "geoid": 255030,
        "type": "city",
        "place": "Nondalton",
        "region": "AK",
        "country": "US",
        "latitude": 59.9730954,
        "longitude": -154.8494455
    },
    {
        "geoid": 255140,
        "type": "city",
        "place": "Noorvik",
        "region": "AK",
        "country": "US",
        "latitude": 66.83569159999999,
        "longitude": -161.041642
    },
    {
        "geoid": 255910,
        "type": "city",
        "place": "North Pole",
        "region": "AK",
        "country": "US",
        "latitude": 64.7552465,
        "longitude": -147.353425
    },
    {
        "geoid": 256320,
        "type": "city",
        "place": "Nuiqsut",
        "region": "AK",
        "country": "US",
        "latitude": 70.2185831,
        "longitude": -150.9989543
    },
    {
        "geoid": 256350,
        "type": "city",
        "place": "Nulato",
        "region": "AK",
        "country": "US",
        "latitude": 64.7207672,
        "longitude": -158.1041968
    },
    {
        "geoid": 256600,
        "type": "city",
        "place": "Nunam Iqua",
        "region": "AK",
        "country": "US",
        "latitude": 62.5309434,
        "longitude": -164.8504455
    },
    {
        "geoid": 256680,
        "type": "city",
        "place": "Nunapitchuk",
        "region": "AK",
        "country": "US",
        "latitude": 60.8967612,
        "longitude": -162.4579756
    },
    {
        "geoid": 257340,
        "type": "city",
        "place": "Old Harbor",
        "region": "AK",
        "country": "US",
        "latitude": 57.20415999999999,
        "longitude": -153.3045379
    },
    {
        "geoid": 258550,
        "type": "city",
        "place": "Ouzinkie",
        "region": "AK",
        "country": "US",
        "latitude": 57.92332200000001,
        "longitude": -152.5019368
    },
    {
        "geoid": 258660,
        "type": "city",
        "place": "Palmer",
        "region": "AK",
        "country": "US",
        "latitude": 61.599415,
        "longitude": -149.1146333
    },
    {
        "geoid": 259650,
        "type": "city",
        "place": "Pelican",
        "region": "AK",
        "country": "US",
        "latitude": 57.9603567,
        "longitude": -136.2300465
    },
    {
        "geoid": 260640,
        "type": "city",
        "place": "Pilot Point",
        "region": "AK",
        "country": "US",
        "latitude": 57.5638883,
        "longitude": -157.5777704
    },
    {
        "geoid": 260750,
        "type": "city",
        "place": "Pilot Station",
        "region": "AK",
        "country": "US",
        "latitude": 61.9369353,
        "longitude": -162.8837757
    },
    {
        "geoid": 261080,
        "type": "city",
        "place": "Platinum",
        "region": "AK",
        "country": "US",
        "latitude": 59.01313940000001,
        "longitude": -161.8211921
    },
    {
        "geoid": 261630,
        "type": "city",
        "place": "Point Hope",
        "region": "AK",
        "country": "US",
        "latitude": 68.3489178,
        "longitude": -166.7397323
    },
    {
        "geoid": 262510,
        "type": "city",
        "place": "Port Alexander",
        "region": "AK",
        "country": "US",
        "latitude": 56.2466758,
        "longitude": -134.6476147
    },
    {
        "geoid": 263390,
        "type": "city",
        "place": "Port Heiden",
        "region": "AK",
        "country": "US",
        "latitude": 56.9506252,
        "longitude": -158.6273599
    },
    {
        "geoid": 263610,
        "type": "city",
        "place": "Port Lions",
        "region": "AK",
        "country": "US",
        "latitude": 57.8674157,
        "longitude": -152.8831903
    },
    {
        "geoid": 264600,
        "type": "city",
        "place": "Quinhagak",
        "region": "AK",
        "country": "US",
        "latitude": 59.75070770000001,
        "longitude": -161.9020211
    },
    {
        "geoid": 265590,
        "type": "city",
        "place": "Ruby",
        "region": "AK",
        "country": "US",
        "latitude": 64.7390721,
        "longitude": -155.4904548
    },
    {
        "geoid": 265700,
        "type": "city",
        "place": "Russian Mission",
        "region": "AK",
        "country": "US",
        "latitude": 61.7849909,
        "longitude": -161.3205586
    },
    {
        "geoid": 265800,
        "type": "city",
        "place": "St. George",
        "region": "AK",
        "country": "US",
        "latitude": 56.6016274,
        "longitude": -169.5480771
    },
    {
        "geoid": 266140,
        "type": "city",
        "place": "St. Mary's",
        "region": "AK",
        "country": "US",
        "latitude": 62.0484464,
        "longitude": -163.1874199
    },
    {
        "geoid": 266360,
        "type": "city",
        "place": "St. Michael",
        "region": "AK",
        "country": "US",
        "latitude": 63.4785588,
        "longitude": -162.0347317
    },
    {
        "geoid": 266470,
        "type": "city",
        "place": "St. Paul",
        "region": "AK",
        "country": "US",
        "latitude": 57.1208002,
        "longitude": -170.2829517
    },
    {
        "geoid": 267020,
        "type": "city",
        "place": "Sand Point",
        "region": "AK",
        "country": "US",
        "latitude": 55.34046859999999,
        "longitude": -160.4985822
    },
    {
        "geoid": 267460,
        "type": "city",
        "place": "Savoonga",
        "region": "AK",
        "country": "US",
        "latitude": 63.6938082,
        "longitude": -170.4840806
    },
    {
        "geoid": 267570,
        "type": "city",
        "place": "Saxman",
        "region": "AK",
        "country": "US",
        "latitude": 55.3170355,
        "longitude": -131.594222
    },
    {
        "geoid": 267680,
        "type": "city",
        "place": "Scammon Bay",
        "region": "AK",
        "country": "US",
        "latitude": 61.8425811,
        "longitude": -165.5802341
    },
    {
        "geoid": 268230,
        "type": "city",
        "place": "Selawik",
        "region": "AK",
        "country": "US",
        "latitude": 66.602598,
        "longitude": -160.014671
    },
    {
        "geoid": 268340,
        "type": "city",
        "place": "Seldovia",
        "region": "AK",
        "country": "US",
        "latitude": 59.43853000000001,
        "longitude": -151.7150486
    },
    {
        "geoid": 268560,
        "type": "city",
        "place": "Seward",
        "region": "AK",
        "country": "US",
        "latitude": 60.1047739,
        "longitude": -149.4421037
    },
    {
        "geoid": 268670,
        "type": "city",
        "place": "Shageluk",
        "region": "AK",
        "country": "US",
        "latitude": 62.65525359999999,
        "longitude": -159.5338527
    },
    {
        "geoid": 268890,
        "type": "city",
        "place": "Shaktoolik",
        "region": "AK",
        "country": "US",
        "latitude": 64.3577218,
        "longitude": -161.2007313
    },
    {
        "geoid": 269770,
        "type": "city",
        "place": "Shishmaref",
        "region": "AK",
        "country": "US",
        "latitude": 66.2568502,
        "longitude": -166.0610999
    },
    {
        "geoid": 270100,
        "type": "city",
        "place": "Shungnak",
        "region": "AK",
        "country": "US",
        "latitude": 66.8878642,
        "longitude": -157.1398537
    },
    {
        "geoid": 271640,
        "type": "city",
        "place": "Soldotna",
        "region": "AK",
        "country": "US",
        "latitude": 60.48638289999999,
        "longitude": -151.0571796
    },
    {
        "geoid": 272960,
        "type": "city",
        "place": "Stebbins",
        "region": "AK",
        "country": "US",
        "latitude": 63.51850100000001,
        "longitude": -162.283627
    },
    {
        "geoid": 275160,
        "type": "city",
        "place": "Tanana",
        "region": "AK",
        "country": "US",
        "latitude": 65.1709277,
        "longitude": -152.0887492
    },
    {
        "geoid": 275930,
        "type": "city",
        "place": "Teller",
        "region": "AK",
        "country": "US",
        "latitude": 65.2634319,
        "longitude": -166.362264
    },
    {
        "geoid": 276260,
        "type": "city",
        "place": "Tenakee Springs",
        "region": "AK",
        "country": "US",
        "latitude": 57.78006979999999,
        "longitude": -135.2193111
    },
    {
        "geoid": 277140,
        "type": "city",
        "place": "Thorne Bay",
        "region": "AK",
        "country": "US",
        "latitude": 55.6867672,
        "longitude": -132.5232037
    },
    {
        "geoid": 277690,
        "type": "city",
        "place": "Togiak",
        "region": "AK",
        "country": "US",
        "latitude": 59.0618127,
        "longitude": -160.3769037
    },
    {
        "geoid": 278240,
        "type": "city",
        "place": "Toksook Bay",
        "region": "AK",
        "country": "US",
        "latitude": 60.53093919999999,
        "longitude": -165.1078016
    },
    {
        "geoid": 280660,
        "type": "city",
        "place": "Unalakleet",
        "region": "AK",
        "country": "US",
        "latitude": 63.8765975,
        "longitude": -160.7925128
    },
    {
        "geoid": 280770,
        "type": "city",
        "place": "Unalaska",
        "region": "AK",
        "country": "US",
        "latitude": 53.8725737,
        "longitude": -166.5375512
    },
    {
        "geoid": 281320,
        "type": "city",
        "place": "Upper Kalskag",
        "region": "AK",
        "country": "US",
        "latitude": 61.53857490000001,
        "longitude": -160.3195013
    },
    {
        "geoid": 281920,
        "type": "city",
        "place": "Utqiag\u0307vik",
        "region": "AK",
        "country": "US",
        "latitude": 71.29055559999999,
        "longitude": -156.7886111
    },
    {
        "geoid": 282200,
        "type": "city",
        "place": "Valdez",
        "region": "AK",
        "country": "US",
        "latitude": 61.1308812,
        "longitude": -146.3498607
    },
    {
        "geoid": 282750,
        "type": "city",
        "place": "Wainwright",
        "region": "AK",
        "country": "US",
        "latitude": 70.6401247,
        "longitude": -160.0256801
    },
    {
        "geoid": 282860,
        "type": "city",
        "place": "Wales",
        "region": "AK",
        "country": "US",
        "latitude": 65.610112,
        "longitude": -168.0915866
    },
    {
        "geoid": 283080,
        "type": "city",
        "place": "Wasilla",
        "region": "AK",
        "country": "US",
        "latitude": 61.58087629999999,
        "longitude": -149.4410597
    },
    {
        "geoid": 284000,
        "type": "city",
        "place": "Whale Pass",
        "region": "AK",
        "country": "US",
        "latitude": 56.1185103,
        "longitude": -133.1295036
    },
    {
        "geoid": 284070,
        "type": "city",
        "place": "White Mountain",
        "region": "AK",
        "country": "US",
        "latitude": 64.6809434,
        "longitude": -163.4040253
    },
    {
        "geoid": 284510,
        "type": "city",
        "place": "Whittier",
        "region": "AK",
        "country": "US",
        "latitude": 60.7745903,
        "longitude": -148.6858408
    },
    {
        "geoid": 402830,
        "type": "city",
        "place": "Apache Junction",
        "region": "AZ",
        "country": "US",
        "latitude": 33.414911,
        "longitude": -111.5500532
    },
    {
        "geoid": 404720,
        "type": "city",
        "place": "Avondale",
        "region": "AZ",
        "country": "US",
        "latitude": 33.4355977,
        "longitude": -112.3496021
    },
    {
        "geoid": 405770,
        "type": "city",
        "place": "Benson",
        "region": "AZ",
        "country": "US",
        "latitude": 31.9678611,
        "longitude": -110.2945174
    },
    {
        "geoid": 406260,
        "type": "city",
        "place": "Bisbee",
        "region": "AZ",
        "country": "US",
        "latitude": 31.4481547,
        "longitude": -109.9284084
    },
    {
        "geoid": 407940,
        "type": "city",
        "place": "Buckeye",
        "region": "AZ",
        "country": "US",
        "latitude": 33.3703197,
        "longitude": -112.5837766
    },
    {
        "geoid": 408220,
        "type": "city",
        "place": "Bullhead City",
        "region": "AZ",
        "country": "US",
        "latitude": 35.1359386,
        "longitude": -114.5285981
    },
    {
        "geoid": 410530,
        "type": "city",
        "place": "Casa Grande",
        "region": "AZ",
        "country": "US",
        "latitude": 32.9110027,
        "longitude": -111.7733902
    },
    {
        "geoid": 412000,
        "type": "city",
        "place": "Chandler",
        "region": "AZ",
        "country": "US",
        "latitude": 33.3061605,
        "longitude": -111.8412502
    },
    {
        "geoid": 415500,
        "type": "city",
        "place": "Coolidge",
        "region": "AZ",
        "country": "US",
        "latitude": 32.977839,
        "longitude": -111.517624
    },
    {
        "geoid": 416410,
        "type": "city",
        "place": "Cottonwood",
        "region": "AZ",
        "country": "US",
        "latitude": 34.7391876,
        "longitude": -112.0098791
    },
    {
        "geoid": 420050,
        "type": "city",
        "place": "Douglas",
        "region": "AZ",
        "country": "US",
        "latitude": 31.3445471,
        "longitude": -109.5453447
    },
    {
        "geoid": 422220,
        "type": "city",
        "place": "El Mirage",
        "region": "AZ",
        "country": "US",
        "latitude": 33.6130942,
        "longitude": -112.3246042
    },
    {
        "geoid": 422360,
        "type": "city",
        "place": "Eloy",
        "region": "AZ",
        "country": "US",
        "latitude": 32.7558962,
        "longitude": -111.554844
    },
    {
        "geoid": 423620,
        "type": "city",
        "place": "Flagstaff",
        "region": "AZ",
        "country": "US",
        "latitude": 35.1982836,
        "longitude": -111.651302
    },
    {
        "geoid": 427820,
        "type": "city",
        "place": "Glendale",
        "region": "AZ",
        "country": "US",
        "latitude": 33.5386523,
        "longitude": -112.1859866
    },
    {
        "geoid": 428030,
        "type": "city",
        "place": "Globe",
        "region": "AZ",
        "country": "US",
        "latitude": 33.3942223,
        "longitude": -110.7864984
    },
    {
        "geoid": 428380,
        "type": "city",
        "place": "Goodyear",
        "region": "AZ",
        "country": "US",
        "latitude": 33.4353394,
        "longitude": -112.3576567
    },
    {
        "geoid": 433280,
        "type": "city",
        "place": "Holbrook",
        "region": "AZ",
        "country": "US",
        "latitude": 34.9022482,
        "longitude": -110.1581768
    },
    {
        "geoid": 437620,
        "type": "city",
        "place": "Kingman",
        "region": "AZ",
        "country": "US",
        "latitude": 35.189443,
        "longitude": -114.0530065
    },
    {
        "geoid": 439370,
        "type": "city",
        "place": "Lake Havasu City",
        "region": "AZ",
        "country": "US",
        "latitude": 34.483901,
        "longitude": -114.3224548
    },
    {
        "geoid": 441330,
        "type": "city",
        "place": "Litchfield Park",
        "region": "AZ",
        "country": "US",
        "latitude": 33.4933743,
        "longitude": -112.3579364
    },
    {
        "geoid": 444410,
        "type": "city",
        "place": "Maricopa",
        "region": "AZ",
        "country": "US",
        "latitude": 33.0581063,
        "longitude": -112.0476423
    },
    {
        "geoid": 446000,
        "type": "city",
        "place": "Mesa",
        "region": "AZ",
        "country": "US",
        "latitude": 33.4151843,
        "longitude": -111.8314724
    },
    {
        "geoid": 449640,
        "type": "city",
        "place": "Nogales",
        "region": "AZ",
        "country": "US",
        "latitude": 31.3403775,
        "longitude": -110.9342532
    },
    {
        "geoid": 451810,
        "type": "city",
        "place": "Page",
        "region": "AZ",
        "country": "US",
        "latitude": 36.91472220000001,
        "longitude": -111.4558333
    },
    {
        "geoid": 454050,
        "type": "city",
        "place": "Peoria",
        "region": "AZ",
        "country": "US",
        "latitude": 33.5805955,
        "longitude": -112.2373779
    },
    {
        "geoid": 455000,
        "type": "city",
        "place": "Phoenix",
        "region": "AZ",
        "country": "US",
        "latitude": 33.4483771,
        "longitude": -112.0740373
    },
    {
        "geoid": 457380,
        "type": "city",
        "place": "Prescott",
        "region": "AZ",
        "country": "US",
        "latitude": 34.5400242,
        "longitude": -112.4685025
    },
    {
        "geoid": 462000,
        "type": "city",
        "place": "Safford",
        "region": "AZ",
        "country": "US",
        "latitude": 32.8339546,
        "longitude": -109.70758
    },
    {
        "geoid": 462350,
        "type": "city",
        "place": "St. Johns",
        "region": "AZ",
        "country": "US",
        "latitude": 34.5058698,
        "longitude": -109.3609327
    },
    {
        "geoid": 463470,
        "type": "city",
        "place": "San Luis",
        "region": "AZ",
        "country": "US",
        "latitude": 32.4869996,
        "longitude": -114.7821796
    },
    {
        "geoid": 465000,
        "type": "city",
        "place": "Scottsdale",
        "region": "AZ",
        "country": "US",
        "latitude": 33.4941704,
        "longitude": -111.9260519
    },
    {
        "geoid": 465350,
        "type": "city",
        "place": "Sedona",
        "region": "AZ",
        "country": "US",
        "latitude": 34.8697395,
        "longitude": -111.7609896
    },
    {
        "geoid": 466470,
        "type": "city",
        "place": "Show Low",
        "region": "AZ",
        "country": "US",
        "latitude": 34.2542084,
        "longitude": -110.0298327
    },
    {
        "geoid": 466820,
        "type": "city",
        "place": "Sierra Vista",
        "region": "AZ",
        "country": "US",
        "latitude": 31.5455001,
        "longitude": -110.2772856
    },
    {
        "geoid": 468080,
        "type": "city",
        "place": "Somerton",
        "region": "AZ",
        "country": "US",
        "latitude": 32.5964404,
        "longitude": -114.709677
    },
    {
        "geoid": 468850,
        "type": "city",
        "place": "South Tucson",
        "region": "AZ",
        "country": "US",
        "latitude": 32.1954998,
        "longitude": -110.9684411
    },
    {
        "geoid": 471510,
        "type": "city",
        "place": "Surprise",
        "region": "AZ",
        "country": "US",
        "latitude": 33.6292337,
        "longitude": -112.3679279
    },
    {
        "geoid": 473000,
        "type": "city",
        "place": "Tempe",
        "region": "AZ",
        "country": "US",
        "latitude": 33.4255104,
        "longitude": -111.9400054
    },
    {
        "geoid": 474190,
        "type": "city",
        "place": "Tolleson",
        "region": "AZ",
        "country": "US",
        "latitude": 33.4500425,
        "longitude": -112.259321
    },
    {
        "geoid": 474400,
        "type": "city",
        "place": "Tombstone",
        "region": "AZ",
        "country": "US",
        "latitude": 31.7128683,
        "longitude": -110.0675764
    },
    {
        "geoid": 477000,
        "type": "city",
        "place": "Tucson",
        "region": "AZ",
        "country": "US",
        "latitude": 32.2539787,
        "longitude": -110.9741769
    },
    {
        "geoid": 483090,
        "type": "city",
        "place": "Willcox",
        "region": "AZ",
        "country": "US",
        "latitude": 32.2528519,
        "longitude": -109.8320124
    },
    {
        "geoid": 483160,
        "type": "city",
        "place": "Williams",
        "region": "AZ",
        "country": "US",
        "latitude": 35.24945659999999,
        "longitude": -112.1910031
    },
    {
        "geoid": 483930,
        "type": "city",
        "place": "Winslow",
        "region": "AZ",
        "country": "US",
        "latitude": 35.0241873,
        "longitude": -110.6973571
    },
    {
        "geoid": 485540,
        "type": "city",
        "place": "Yuma",
        "region": "AZ",
        "country": "US",
        "latitude": 32.6926512,
        "longitude": -114.6276916
    },
    {
        "geoid": 500250,
        "type": "city",
        "place": "Adona",
        "region": "AR",
        "country": "US",
        "latitude": 35.0381124,
        "longitude": -92.8994582
    },
    {
        "geoid": 500580,
        "type": "city",
        "place": "Alexander",
        "region": "AR",
        "country": "US",
        "latitude": 34.6117735,
        "longitude": -92.4460572
    },
    {
        "geoid": 500970,
        "type": "city",
        "place": "Alma",
        "region": "AR",
        "country": "US",
        "latitude": 35.4922086,
        "longitude": -94.22608679999999
    },
    {
        "geoid": 501150,
        "type": "city",
        "place": "Altheimer",
        "region": "AR",
        "country": "US",
        "latitude": 34.3195708,
        "longitude": -91.84638799999999
    },
    {
        "geoid": 501210,
        "type": "city",
        "place": "Altus",
        "region": "AR",
        "country": "US",
        "latitude": 35.4460295,
        "longitude": -93.76564909999999
    },
    {
        "geoid": 501360,
        "type": "city",
        "place": "Amity",
        "region": "AR",
        "country": "US",
        "latitude": 34.2647555,
        "longitude": -93.4613098
    },
    {
        "geoid": 501870,
        "type": "city",
        "place": "Arkadelphia",
        "region": "AR",
        "country": "US",
        "latitude": 34.120994,
        "longitude": -93.053544
    },
    {
        "geoid": 501990,
        "type": "city",
        "place": "Arkansas City",
        "region": "AR",
        "country": "US",
        "latitude": 33.6080483,
        "longitude": -91.2062203
    },
    {
        "geoid": 502380,
        "type": "city",
        "place": "Ashdown",
        "region": "AR",
        "country": "US",
        "latitude": 33.67426450000001,
        "longitude": -94.1316238
    },
    {
        "geoid": 502470,
        "type": "city",
        "place": "Ash Flat",
        "region": "AR",
        "country": "US",
        "latitude": 36.2241046,
        "longitude": -91.6085617
    },
    {
        "geoid": 502590,
        "type": "city",
        "place": "Atkins",
        "region": "AR",
        "country": "US",
        "latitude": 35.2420396,
        "longitude": -92.9374471
    },
    {
        "geoid": 502740,
        "type": "city",
        "place": "Augusta",
        "region": "AR",
        "country": "US",
        "latitude": 35.2823375,
        "longitude": -91.36182389999999
    },
    {
        "geoid": 502860,
        "type": "city",
        "place": "Austin",
        "region": "AR",
        "country": "US",
        "latitude": 34.9989648,
        "longitude": -91.9840288
    },
    {
        "geoid": 503280,
        "type": "city",
        "place": "Bald Knob",
        "region": "AR",
        "country": "US",
        "latitude": 35.3083426,
        "longitude": -91.57074209999999
    },
    {
        "geoid": 503640,
        "type": "city",
        "place": "Barling",
        "region": "AR",
        "country": "US",
        "latitude": 35.3253111,
        "longitude": -94.30137549999999
    },
    {
        "geoid": 504030,
        "type": "city",
        "place": "Batesville",
        "region": "AR",
        "country": "US",
        "latitude": 35.7696862,
        "longitude": -91.6409431
    },
    {
        "geoid": 504180,
        "type": "city",
        "place": "Bay",
        "region": "AR",
        "country": "US",
        "latitude": 35.7443811,
        "longitude": -90.5640368
    },
    {
        "geoid": 504420,
        "type": "city",
        "place": "Bearden",
        "region": "AR",
        "country": "US",
        "latitude": 33.72465030000001,
        "longitude": -92.61566069999999
    },
    {
        "geoid": 504600,
        "type": "city",
        "place": "Beebe",
        "region": "AR",
        "country": "US",
        "latitude": 35.0703929,
        "longitude": -91.879841
    },
    {
        "geoid": 504840,
        "type": "city",
        "place": "Bella Vista",
        "region": "AR",
        "country": "US",
        "latitude": 36.475798,
        "longitude": -94.2475489
    },
    {
        "geoid": 504960,
        "type": "city",
        "place": "Belleville",
        "region": "AR",
        "country": "US",
        "latitude": 35.0923768,
        "longitude": -93.4483805
    },
    {
        "geoid": 505290,
        "type": "city",
        "place": "Benton",
        "region": "AR",
        "country": "US",
        "latitude": 34.5693083,
        "longitude": -92.58537799999999
    },
    {
        "geoid": 505320,
        "type": "city",
        "place": "Bentonville",
        "region": "AR",
        "country": "US",
        "latitude": 36.3723561,
        "longitude": -94.21021410000002
    },
    {
        "geoid": 505560,
        "type": "city",
        "place": "Berryville",
        "region": "AR",
        "country": "US",
        "latitude": 36.3649739,
        "longitude": -93.5675395
    },
    {
        "geoid": 506700,
        "type": "city",
        "place": "Black Rock",
        "region": "AR",
        "country": "US",
        "latitude": 36.1082803,
        "longitude": -91.09839029999999
    },
    {
        "geoid": 507030,
        "type": "city",
        "place": "Blevins",
        "region": "AR",
        "country": "US",
        "latitude": 33.87169130000001,
        "longitude": -93.57684309999999
    },
    {
        "geoid": 507330,
        "type": "city",
        "place": "Blytheville",
        "region": "AR",
        "country": "US",
        "latitude": 35.9284963,
        "longitude": -89.9080319
    },
    {
        "geoid": 507540,
        "type": "city",
        "place": "Bonanza",
        "region": "AR",
        "country": "US",
        "latitude": 35.2391805,
        "longitude": -94.42107550000001
    },
    {
        "geoid": 507630,
        "type": "city",
        "place": "Bono",
        "region": "AR",
        "country": "US",
        "latitude": 35.9091191,
        "longitude": -90.8027425
    },
    {
        "geoid": 507720,
        "type": "city",
        "place": "Booneville",
        "region": "AR",
        "country": "US",
        "latitude": 35.1402167,
        "longitude": -93.92183089999999
    },
    {
        "geoid": 508260,
        "type": "city",
        "place": "Bradford",
        "region": "AR",
        "country": "US",
        "latitude": 35.4232724,
        "longitude": -91.4557526
    },
    {
        "geoid": 508290,
        "type": "city",
        "place": "Bradley",
        "region": "AR",
        "country": "US",
        "latitude": 33.0978512,
        "longitude": -93.6556805
    },
    {
        "geoid": 508440,
        "type": "city",
        "place": "Branch",
        "region": "AR",
        "country": "US",
        "latitude": 35.3054526,
        "longitude": -93.9532626
    },
    {
        "geoid": 508665,
        "type": "city",
        "place": "Briarcliff",
        "region": "AR",
        "country": "US",
        "latitude": 36.272855,
        "longitude": -92.29276229999999
    },
    {
        "geoid": 508950,
        "type": "city",
        "place": "Brinkley",
        "region": "AR",
        "country": "US",
        "latitude": 34.8871967,
        "longitude": -91.1945811
    },
    {
        "geoid": 509100,
        "type": "city",
        "place": "Brookland",
        "region": "AR",
        "country": "US",
        "latitude": 35.9074071,
        "longitude": -90.5772617
    },
    {
        "geoid": 509460,
        "type": "city",
        "place": "Bryant",
        "region": "AR",
        "country": "US",
        "latitude": 34.624568,
        "longitude": -92.4995407
    },
    {
        "geoid": 509550,
        "type": "city",
        "place": "Buckner",
        "region": "AR",
        "country": "US",
        "latitude": 33.3584709,
        "longitude": -93.4349012
    },
    {
        "geoid": 509790,
        "type": "city",
        "place": "Bull Shoals",
        "region": "AR",
        "country": "US",
        "latitude": 36.3839278,
        "longitude": -92.5833435
    },
    {
        "geoid": 510300,
        "type": "city",
        "place": "Cabot",
        "region": "AR",
        "country": "US",
        "latitude": 34.9748751,
        "longitude": -92.0163297
    },
    {
        "geoid": 510570,
        "type": "city",
        "place": "Calico Rock",
        "region": "AR",
        "country": "US",
        "latitude": 36.1195106,
        "longitude": -92.1360968
    },
    {
        "geoid": 510600,
        "type": "city",
        "place": "Calion",
        "region": "AR",
        "country": "US",
        "latitude": 33.3296229,
        "longitude": -92.5432079
    },
    {
        "geoid": 510720,
        "type": "city",
        "place": "Camden",
        "region": "AR",
        "country": "US",
        "latitude": 33.5836341,
        "longitude": -92.8341045
    },
    {
        "geoid": 510780,
        "type": "city",
        "place": "Cammack Village",
        "region": "AR",
        "country": "US",
        "latitude": 34.78040319999999,
        "longitude": -92.3447101
    },
    {
        "geoid": 510900,
        "type": "city",
        "place": "Campbell Station",
        "region": "AR",
        "country": "US",
        "latitude": 35.6675246,
        "longitude": -91.25503859999999
    },
    {
        "geoid": 511410,
        "type": "city",
        "place": "Caraway",
        "region": "AR",
        "country": "US",
        "latitude": 35.7581676,
        "longitude": -90.3226746
    },
    {
        "geoid": 511500,
        "type": "city",
        "place": "Carlisle",
        "region": "AR",
        "country": "US",
        "latitude": 34.7804924,
        "longitude": -91.7479233
    },
    {
        "geoid": 511830,
        "type": "city",
        "place": "Carthage",
        "region": "AR",
        "country": "US",
        "latitude": 34.0743383,
        "longitude": -92.554566
    },
    {
        "geoid": 512280,
        "type": "city",
        "place": "Cave City",
        "region": "AR",
        "country": "US",
        "latitude": 35.9417534,
        "longitude": -91.54837619999999
    },
    {
        "geoid": 512340,
        "type": "city",
        "place": "Cave Springs",
        "region": "AR",
        "country": "US",
        "latitude": 36.2647805,
        "longitude": -94.2320402
    },
    {
        "geoid": 512520,
        "type": "city",
        "place": "Cedarville",
        "region": "AR",
        "country": "US",
        "latitude": 35.5699845,
        "longitude": -94.3672114
    },
    {
        "geoid": 512820,
        "type": "city",
        "place": "Centerton",
        "region": "AR",
        "country": "US",
        "latitude": 36.3585128,
        "longitude": -94.28494309999999
    },
    {
        "geoid": 513300,
        "type": "city",
        "place": "Charleston",
        "region": "AR",
        "country": "US",
        "latitude": 35.2971909,
        "longitude": -94.0437396
    },
    {
        "geoid": 513450,
        "type": "city",
        "place": "Cherokee Village",
        "region": "AR",
        "country": "US",
        "latitude": 36.3077857,
        "longitude": -91.5283594
    },
    {
        "geoid": 513540,
        "type": "city",
        "place": "Cherry Valley",
        "region": "AR",
        "country": "US",
        "latitude": 35.4023876,
        "longitude": -90.7534201
    },
    {
        "geoid": 513750,
        "type": "city",
        "place": "Chidester",
        "region": "AR",
        "country": "US",
        "latitude": 33.7021115,
        "longitude": -93.0201629
    },
    {
        "geoid": 513990,
        "type": "city",
        "place": "Clarendon",
        "region": "AR",
        "country": "US",
        "latitude": 34.69263979999999,
        "longitude": -91.30920859999999
    },
    {
        "geoid": 514050,
        "type": "city",
        "place": "Clarkedale",
        "region": "AR",
        "country": "US",
        "latitude": 35.3092356,
        "longitude": -90.236128
    },
    {
        "geoid": 514140,
        "type": "city",
        "place": "Clarksville",
        "region": "AR",
        "country": "US",
        "latitude": 35.4712243,
        "longitude": -93.468612
    },
    {
        "geoid": 514260,
        "type": "city",
        "place": "Clinton",
        "region": "AR",
        "country": "US",
        "latitude": 35.5932322,
        "longitude": -92.4596171
    },
    {
        "geoid": 514500,
        "type": "city",
        "place": "Coal Hill",
        "region": "AR",
        "country": "US",
        "latitude": 35.4379551,
        "longitude": -93.6744021
    },
    {
        "geoid": 514950,
        "type": "city",
        "place": "Colt",
        "region": "AR",
        "country": "US",
        "latitude": 35.1317142,
        "longitude": -90.8114362
    },
    {
        "geoid": 515190,
        "type": "city",
        "place": "Conway",
        "region": "AR",
        "country": "US",
        "latitude": 35.0917506,
        "longitude": -92.4366522
    },
    {
        "geoid": 515460,
        "type": "city",
        "place": "Corning",
        "region": "AR",
        "country": "US",
        "latitude": 36.4113168,
        "longitude": -90.5864418
    },
    {
        "geoid": 515490,
        "type": "city",
        "place": "Cotter",
        "region": "AR",
        "country": "US",
        "latitude": 36.2689041,
        "longitude": -92.5359398
    },
    {
        "geoid": 515550,
        "type": "city",
        "place": "Cotton Plant",
        "region": "AR",
        "country": "US",
        "latitude": 35.0046378,
        "longitude": -91.250908
    },
    {
        "geoid": 516240,
        "type": "city",
        "place": "Crossett",
        "region": "AR",
        "country": "US",
        "latitude": 33.1240976,
        "longitude": -91.9611917
    },
    {
        "geoid": 516930,
        "type": "city",
        "place": "Cushman",
        "region": "AR",
        "country": "US",
        "latitude": 35.8745919,
        "longitude": -91.75319499999999
    },
    {
        "geoid": 517320,
        "type": "city",
        "place": "Danville",
        "region": "AR",
        "country": "US",
        "latitude": 35.0543675,
        "longitude": -93.3933892
    },
    {
        "geoid": 517380,
        "type": "city",
        "place": "Dardanelle",
        "region": "AR",
        "country": "US",
        "latitude": 35.2233908,
        "longitude": -93.15651439999999
    },
    {
        "geoid": 517740,
        "type": "city",
        "place": "Decatur",
        "region": "AR",
        "country": "US",
        "latitude": 36.3357841,
        "longitude": -94.46069949999999
    },
    {
        "geoid": 518100,
        "type": "city",
        "place": "Delight",
        "region": "AR",
        "country": "US",
        "latitude": 34.0314993,
        "longitude": -93.50296469999999
    },
    {
        "geoid": 518490,
        "type": "city",
        "place": "De Queen",
        "region": "AR",
        "country": "US",
        "latitude": 34.0367834,
        "longitude": -94.341456
    },
    {
        "geoid": 518520,
        "type": "city",
        "place": "Dermott",
        "region": "AR",
        "country": "US",
        "latitude": 33.524958,
        "longitude": -91.436095
    },
    {
        "geoid": 518550,
        "type": "city",
        "place": "Des Arc",
        "region": "AR",
        "country": "US",
        "latitude": 34.9769845,
        "longitude": -91.4976655
    },
    {
        "geoid": 518640,
        "type": "city",
        "place": "De Valls Bluff",
        "region": "AR",
        "country": "US",
        "latitude": 34.785122,
        "longitude": -91.45838619999999
    },
    {
        "geoid": 518790,
        "type": "city",
        "place": "DeWitt",
        "region": "AR",
        "country": "US",
        "latitude": 34.293215,
        "longitude": -91.3351283
    },
    {
        "geoid": 518850,
        "type": "city",
        "place": "Diamond City",
        "region": "AR",
        "country": "US",
        "latitude": 36.4645437,
        "longitude": -92.92007559999999
    },
    {
        "geoid": 518940,
        "type": "city",
        "place": "Diaz",
        "region": "AR",
        "country": "US",
        "latitude": 35.6383619,
        "longitude": -91.2651953
    },
    {
        "geoid": 518970,
        "type": "city",
        "place": "Dierks",
        "region": "AR",
        "country": "US",
        "latitude": 34.1202868,
        "longitude": -94.01688949999999
    },
    {
        "geoid": 519600,
        "type": "city",
        "place": "Dover",
        "region": "AR",
        "country": "US",
        "latitude": 35.40181,
        "longitude": -93.11419099999999
    },
    {
        "geoid": 519990,
        "type": "city",
        "place": "Dumas",
        "region": "AR",
        "country": "US",
        "latitude": 33.8834161,
        "longitude": -91.4835196
    },
    {
        "geoid": 520200,
        "type": "city",
        "place": "Dyer",
        "region": "AR",
        "country": "US",
        "latitude": 35.4948351,
        "longitude": -94.1397126
    },
    {
        "geoid": 520320,
        "type": "city",
        "place": "Earle",
        "region": "AR",
        "country": "US",
        "latitude": 35.2708512,
        "longitude": -90.4657452
    },
    {
        "geoid": 520950,
        "type": "city",
        "place": "Elaine",
        "region": "AR",
        "country": "US",
        "latitude": 34.3080442,
        "longitude": -90.8531622
    },
    {
        "geoid": 521070,
        "type": "city",
        "place": "El Dorado",
        "region": "AR",
        "country": "US",
        "latitude": 33.207471,
        "longitude": -92.66557159999999
    },
    {
        "geoid": 521190,
        "type": "city",
        "place": "Elkins",
        "region": "AR",
        "country": "US",
        "latitude": 36.0006514,
        "longitude": -94.0088348
    },
    {
        "geoid": 521430,
        "type": "city",
        "place": "Elm Springs",
        "region": "AR",
        "country": "US",
        "latitude": 36.2063111,
        "longitude": -94.2347599
    },
    {
        "geoid": 521610,
        "type": "city",
        "place": "Emmet",
        "region": "AR",
        "country": "US",
        "latitude": 33.7263594,
        "longitude": -93.472161
    },
    {
        "geoid": 521730,
        "type": "city",
        "place": "England",
        "region": "AR",
        "country": "US",
        "latitude": 34.5439998,
        "longitude": -91.9691244
    },
    {
        "geoid": 522180,
        "type": "city",
        "place": "Eudora",
        "region": "AR",
        "country": "US",
        "latitude": 33.1101502,
        "longitude": -91.2619325
    },
    {
        "geoid": 522240,
        "type": "city",
        "place": "Eureka Springs",
        "region": "AR",
        "country": "US",
        "latitude": 36.4006499,
        "longitude": -93.7392889
    },
    {
        "geoid": 522360,
        "type": "city",
        "place": "Evening Shade",
        "region": "AR",
        "country": "US",
        "latitude": 36.0722816,
        "longitude": -91.6146744
    },
    {
        "geoid": 522660,
        "type": "city",
        "place": "Fairfield Bay",
        "region": "AR",
        "country": "US",
        "latitude": 35.6106058,
        "longitude": -92.2630298
    },
    {
        "geoid": 523170,
        "type": "city",
        "place": "Farmington",
        "region": "AR",
        "country": "US",
        "latitude": 36.0391066,
        "longitude": -94.25410310000001
    },
    {
        "geoid": 523290,
        "type": "city",
        "place": "Fayetteville",
        "region": "AR",
        "country": "US",
        "latitude": 36.0626579,
        "longitude": -94.16058389999999
    },
    {
        "geoid": 523680,
        "type": "city",
        "place": "Fifty-Six",
        "region": "AR",
        "country": "US",
        "latitude": 35.958139,
        "longitude": -92.2193453
    },
    {
        "geoid": 523800,
        "type": "city",
        "place": "Fisher",
        "region": "AR",
        "country": "US",
        "latitude": 35.4920905,
        "longitude": -90.97260130000001
    },
    {
        "geoid": 524010,
        "type": "city",
        "place": "Flippin",
        "region": "AR",
        "country": "US",
        "latitude": 36.2775379,
        "longitude": -92.5874949
    },
    {
        "geoid": 524220,
        "type": "city",
        "place": "Fordyce",
        "region": "AR",
        "country": "US",
        "latitude": 33.8137295,
        "longitude": -92.41297460000001
    },
    {
        "geoid": 524250,
        "type": "city",
        "place": "Foreman",
        "region": "AR",
        "country": "US",
        "latitude": 33.72165409999999,
        "longitude": -94.3920665
    },
    {
        "geoid": 524430,
        "type": "city",
        "place": "Forrest City",
        "region": "AR",
        "country": "US",
        "latitude": 35.0092581,
        "longitude": -90.7852312
    },
    {
        "geoid": 524550,
        "type": "city",
        "place": "Fort Smith",
        "region": "AR",
        "country": "US",
        "latitude": 35.3843722,
        "longitude": -94.42096459999999
    },
    {
        "geoid": 524640,
        "type": "city",
        "place": "Fouke",
        "region": "AR",
        "country": "US",
        "latitude": 33.2648232,
        "longitude": -93.88542679999999
    },
    {
        "geoid": 526050,
        "type": "city",
        "place": "Gassville",
        "region": "AR",
        "country": "US",
        "latitude": 36.28727629999999,
        "longitude": -92.48171839999999
    },
    {
        "geoid": 526290,
        "type": "city",
        "place": "Gentry",
        "region": "AR",
        "country": "US",
        "latitude": 36.2675615,
        "longitude": -94.4848789
    },
    {
        "geoid": 526980,
        "type": "city",
        "place": "Gillett",
        "region": "AR",
        "country": "US",
        "latitude": 34.1174845,
        "longitude": -91.37617469999999
    },
    {
        "geoid": 527040,
        "type": "city",
        "place": "Gilmore",
        "region": "AR",
        "country": "US",
        "latitude": 35.41184399999999,
        "longitude": -90.28010450000001
    },
    {
        "geoid": 527310,
        "type": "city",
        "place": "Glenwood",
        "region": "AR",
        "country": "US",
        "latitude": 34.3271349,
        "longitude": -93.5497446
    },
    {
        "geoid": 527700,
        "type": "city",
        "place": "Gosnell",
        "region": "AR",
        "country": "US",
        "latitude": 35.9598673,
        "longitude": -89.97176379999999
    },
    {
        "geoid": 527730,
        "type": "city",
        "place": "Gould",
        "region": "AR",
        "country": "US",
        "latitude": 33.9847733,
        "longitude": -91.560687
    },
    {
        "geoid": 527790,
        "type": "city",
        "place": "Grady",
        "region": "AR",
        "country": "US",
        "latitude": 34.0802475,
        "longitude": -91.6999484
    },
    {
        "geoid": 527970,
        "type": "city",
        "place": "Grannis",
        "region": "AR",
        "country": "US",
        "latitude": 34.2404636,
        "longitude": -94.33464450000001
    },
    {
        "geoid": 528360,
        "type": "city",
        "place": "Gravette",
        "region": "AR",
        "country": "US",
        "latitude": 36.4222948,
        "longitude": -94.4518839
    },
    {
        "geoid": 528510,
        "type": "city",
        "place": "Greenbrier",
        "region": "AR",
        "country": "US",
        "latitude": 35.2340491,
        "longitude": -92.38789729999999
    },
    {
        "geoid": 528600,
        "type": "city",
        "place": "Green Forest",
        "region": "AR",
        "country": "US",
        "latitude": 36.33541659999999,
        "longitude": -93.43598759999999
    },
    {
        "geoid": 528660,
        "type": "city",
        "place": "Greenland",
        "region": "AR",
        "country": "US",
        "latitude": 35.9941317,
        "longitude": -94.1740459
    },
    {
        "geoid": 528720,
        "type": "city",
        "place": "Greenway",
        "region": "AR",
        "country": "US",
        "latitude": 36.3412794,
        "longitude": -90.2214544
    },